3,Title,Address,latitude,longitude,Category
1,Super Plumbing Serv..,"National Hardware, R-102, 20 Futa Rd, Batla House, Jarnia Nagar, Okhla, New D...",28.5692546,77.2883204,Plumber
2,Baba Plumber,"-192, School Block South, Block C, Shakarpur, Delhi 110092",28.6264813,77.2777615,Plumber
3,BADAN PLUMBER Sc,"Surajpur, Greater Noida, Uttar Pradesh 201306",28.5126976,77.4841858,Plumber
4,Plumber all service,"Chaura Raghunathpur, Block D, Sector 22, Noida, Uttar Pradesh 201301",28.5970693,77.3482207,Plumber
5,"Rud ra sanitation,","Shop No - 5, Dr. Ambedkar vihar, sector 37, Noida, Gautambuth Nagar, Gali Nu...",28.5573401,77.3422489,Plumber
6,Raj plumbing and ele...,,28.5167536,77.307061,Plumber
7,Ratnakar Plumber Se.,"8-99, Near Gol Chakkar, Kalkaji, Delhi 110019",28.5346916,77.2601742,Plumber
8,Basudevplumbingser...,"Mahashakti Rd, near Om Hospital, Sector 66-67, Sector 62A Noida, Uttar Prade...",28.6281926,77.3444305,Plumber
9,Nipin Plumber Works,"Pocket C-1, Pocket 1, Sector C, New Ashok Nagar, Delhi, 110096",28.615318,77.334361,Plumber
10,Plumber Bathtub Drain,"Shop No 84, Extn, Guru Angad Nagar West, Laxmi Nagar, New Delhi, Delhi 1100...",28.6399018,77.2827649,Plumber
