3,Title,F  F  Address,latitude,longitude,Category
1,Plumber Bathtub Drain,"Shop A85, A- wing 19/A, Street Number 3, Karkardooma, Anand Vihar, Delhi, 11...",28.651806,77.304641,Plumber
2,Prabhu Yadav plumbi...,"Jagat Pon, Krishna Nagar, Delhi,110051",28.6491611,77.2876541,Plumber
3,Plumbing,"1289/8 Shop no, 1, Govindpuri, New Delhi, Delhi 110019",28.5385442,77.2618975,Plumber
4,V. R. Plumber,"A-18, New Panchwati Colony, Bhatiya Moad, Ghaziabad, Uttar Pradesh 201001",28.6470137,77.4439719,Plumber
5,MKT Sumersible Rep...,"Block E, Sector 53, Noida, Uttar Pradesh 201307",28.5887647,77.3606962,Plumber
6,Raju Gupta best plu...,"A-156, Gali Number 9, Chander Vihar, Mandawah, New Delhi, Delhi 110092",28.632902,77.295364,Plumber
7,Plumbing work and s...,"nearest water tank, Nithari Village, Sector 31, Noida, Uttar Pradesh 201301",28.5776526,77.3429533,Plumber
8,79Minutes,"860, Near SBI Bank Sector 2, Noida, Gautam Budhha Nagar, Uttar Pradesh 201...",28.5856663,77.3147811,Plumber
9,RK Goswami,"A-138 Double storey, Kalkaji, New Delhi, Delhi 110019",28.5439921,77.2502047,Plumber
10,Mohan Lal plumber c...,"Block A, Soami Nagar North, Malviya Nagar, New Delhi, Delhi 110080",28.545371,77.2279265,Plumber
